$GPGGA,090000.00,0616.11372293,N,07535.41060137,W,1,05,2.87,160.00,M,-21.3213,M,,*68
$GPGGA,090001.00,0616.11372293,N,07535.41060137,W,1,05,2.87,160.00,M,-21.3213,M,,*69
$GPGGA,090002.00,0616.11372293,N,07535.41060137,W,1,05,2.87,160.00,M,-21.3213,M,,*6A
$GPGGA,090003.00,0616.11372293,N,07535.41060137,W,1,05,2.87,160.00,M,-21.3213,M,,*6B
$GPGGA,090004.00,0616.11372293,N,07535.41060137,W,1,05,2.87,160.00,M,-21.3213,M,,*6C
$GPGGA,090005.00,0616.11372293,N,07535.41060137,W,1,05,2.87,160.00,M,-21.3213,M,,*6D
$GPGGA,090006.00,0616.11372293,N,07535.41060137,W,1,05,2.87,160.00,M,-21.3213,M,,*6E
$GPGGA,090007.00,0616.11372293,N,07535.41060137,W,1,05,2.87,160.00,M,-21.3213,M,,*6F
$GPGGA,090008.00,0616.11372293,N,07535.41060137,W,1,05,2.87,160.00,M,-21.3213,M,,*60
$GPGGA,090009.00,0616.11372293,N,07535.41060137,W,1,05,2.87,160.00,M,-21.3213,M,,*61
$GPGGA,090010.00,0616.11372293,N,07535.41060137,W,1,05,2.87,160.00,M,-21.3213,M,,*69
$GPGGA,090011.00,0616.11372293,N,07535.41060137,W,1,05,2.87,160.00,M,-21.3213,M,,*68
$GPGGA,090012.00,0616.11372293,N,07535.41060137,W,1,05,2.87,160.00,M,-21.3213,M,,*6B
$GPGGA,090013.00,0616.11372293,N,07535.41060137,W,1,05,2.87,160.00,M,-21.3213,M,,*6A
$GPGGA,090014.00,0616.11372293,N,07535.41060137,W,1,05,2.87,160.00,M,-21.3213,M,,*6D
$GPGGA,090015.00,0616.11372293,N,07535.41060137,W,1,05,2.87,160.00,M,-21.3213,M,,*6C
$GPGGA,090016.00,0616.11372293,N,07535.41060137,W,1,05,2.87,160.00,M,-21.3213,M,,*6F
$GPGGA,090017.00,0616.11372293,N,07535.41060137,W,1,05,2.87,160.00,M,-21.3213,M,,*6E
$GPGGA,090018.00,0616.11372293,N,07535.41060137,W,1,05,2.87,160.00,M,-21.3213,M,,*61
$GPGGA,090019.00,0616.11372293,N,07535.41060137,W,1,05,2.87,160.00,M,-21.3213,M,,*60
$GPGGA,090020.00,0616.11372293,N,07535.41060137,W,1,05,2.87,160.00,M,-21.3213,M,,*6A
$GPGGA,090021.00,0616.11372293,N,07535.41060137,W,1,05,2.87,160.00,M,-21.3213,M,,*6B
$GPGGA,090022.00,0616.11372293,N,07535.41060137,W,1,05,2.87,160.00,M,-21.3213,M,,*68
$GPGGA,090023.00,0616.11372293,N,07535.41060137,W,1,05,2.87,160.00,M,-21.3213,M,,*69
$GPGGA,090024.00,0616.11372293,N,07535.41060137,W,1,05,2.87,160.00,M,-21.3213,M,,*6E
$GPGGA,090025.00,0616.11372293,N,07535.41060137,W,1,05,2.87,160.00,M,-21.3213,M,,*6F
$GPGGA,090026.00,0616.11372293,N,07535.41060137,W,1,05,2.87,160.00,M,-21.3213,M,,*6C
$GPGGA,090027.00,0616.11372293,N,07535.41060137,W,1,05,2.87,160.00,M,-21.3213,M,,*6D
$GPGGA,090028.00,0616.11372293,N,07535.41060137,W,1,05,2.87,160.00,M,-21.3213,M,,*62
$GPGGA,090029.00,0616.11372293,N,07535.41060137,W,1,05,2.87,160.00,M,-21.3213,M,,*63
$GPGGA,090030.00,0616.11372293,N,07535.41060137,W,1,05,2.87,160.00,M,-21.3213,M,,*6B
$GPGGA,090031.00,0616.11372293,N,07535.41060137,W,1,05,2.87,160.00,M,-21.3213,M,,*6A
$GPGGA,090032.00,0616.11372293,N,07535.41060137,W,1,05,2.87,160.00,M,-21.3213,M,,*69
$GPGGA,090033.00,0616.11372293,N,07535.41060137,W,1,05,2.87,160.00,M,-21.3213,M,,*68
$GPGGA,090034.00,0616.11372293,N,07535.41060137,W,1,05,2.87,160.00,M,-21.3213,M,,*6F
$GPGGA,090035.00,0616.11372293,N,07535.41060137,W,1,05,2.87,160.00,M,-21.3213,M,,*6E
$GPGGA,090036.00,0616.11372293,N,07535.41060137,W,1,05,2.87,160.00,M,-21.3213,M,,*6D
$GPGGA,090037.00,0616.11372293,N,07535.41060137,W,1,05,2.87,160.00,M,-21.3213,M,,*6C
$GPGGA,090038.00,0616.11372293,N,07535.41060137,W,1,05,2.87,160.00,M,-21.3213,M,,*63
$GPGGA,090039.00,0616.11372293,N,07535.41060137,W,1,05,2.87,160.00,M,-21.3213,M,,*62
$GPGGA,090040.00,0616.11372293,N,07535.41060137,W,1,05,2.87,160.00,M,-21.3213,M,,*6C
$GPGGA,090041.00,0616.11372293,N,07535.41060137,W,1,05,2.87,160.00,M,-21.3213,M,,*6D
$GPGGA,090042.00,0616.11372293,N,07535.41060137,W,1,05,2.87,160.00,M,-21.3213,M,,*6E
$GPGGA,090043.00,0616.11372293,N,07535.41060137,W,1,05,2.87,160.00,M,-21.3213,M,,*6F
$GPGGA,090044.00,0616.11372293,N,07535.41060137,W,1,05,2.87,160.00,M,-21.3213,M,,*68
$GPGGA,090045.00,0616.11372293,N,07535.41060137,W,1,05,2.87,160.00,M,-21.3213,M,,*69
$GPGGA,090046.00,0616.11372293,N,07535.41060137,W,1,05,2.87,160.00,M,-21.3213,M,,*6A
$GPGGA,090047.00,0616.11372293,N,07535.41060137,W,1,05,2.87,160.00,M,-21.3213,M,,*6B
$GPGGA,090048.00,0616.11372293,N,07535.41060137,W,1,05,2.87,160.00,M,-21.3213,M,,*64
$GPGGA,090049.00,0616.11372293,N,07535.41060137,W,1,05,2.87,160.00,M,-21.3213,M,,*65
$GPGGA,090050.00,0616.11372293,N,07535.41060137,W,1,05,2.87,160.00,M,-21.3213,M,,*6D
$GPGGA,090051.00,0616.11372293,N,07535.41060137,W,1,05,2.87,160.00,M,-21.3213,M,,*6C
$GPGGA,090052.00,0616.11372293,N,07535.41060137,W,1,05,2.87,160.00,M,-21.3213,M,,*6F
$GPGGA,090053.00,0616.11372293,N,07535.41060137,W,1,05,2.87,160.00,M,-21.3213,M,,*6E
$GPGGA,090054.00,0616.11372293,N,07535.41060137,W,1,05,2.87,160.00,M,-21.3213,M,,*69
$GPGGA,090055.00,0616.11372293,N,07535.41060137,W,1,05,2.87,160.00,M,-21.3213,M,,*68
$GPGGA,090056.00,0616.11372293,N,07535.41060137,W,1,05,2.87,160.00,M,-21.3213,M,,*6B
$GPGGA,090057.00,0616.11372293,N,07535.41060137,W,1,05,2.87,160.00,M,-21.3213,M,,*6A
$GPGGA,090058.00,0616.11372293,N,07535.41060137,W,1,05,2.87,160.00,M,-21.3213,M,,*65
$GPGGA,090059.00,0616.11372293,N,07535.41060137,W,1,05,2.87,160.00,M,-21.3213,M,,*64
$GPGGA,090100.00,0616.11372293,N,07535.41060137,W,1,05,2.87,160.00,M,-21.3213,M,,*69
$GPGGA,090101.00,0616.11372293,N,07535.41060137,W,1,05,2.87,160.00,M,-21.3213,M,,*68
$GPGGA,090102.00,0616.11372293,N,07535.41060137,W,1,05,2.87,160.00,M,-21.3213,M,,*6B
$GPGGA,090103.00,0616.11372293,N,07535.41060137,W,1,05,2.87,160.00,M,-21.3213,M,,*6A
$GPGGA,090104.00,0616.11372293,N,07535.41060137,W,1,05,2.87,160.00,M,-21.3213,M,,*6D
$GPGGA,090105.00,0616.11372293,N,07535.41060137,W,1,05,2.87,160.00,M,-21.3213,M,,*6C
$GPGGA,090106.00,0616.11372293,N,07535.41060137,W,1,05,2.87,160.00,M,-21.3213,M,,*6F
$GPGGA,090107.00,0616.11372293,N,07535.41060137,W,1,05,2.87,160.00,M,-21.3213,M,,*6E
$GPGGA,090108.00,0616.11372293,N,07535.41060137,W,1,05,2.87,160.00,M,-21.3213,M,,*61
$GPGGA,090109.00,0616.11372293,N,07535.41060137,W,1,05,2.87,160.00,M,-21.3213,M,,*60
$GPGGA,090110.00,0616.11372293,N,07535.41060137,W,1,05,2.87,160.00,M,-21.3213,M,,*68
$GPGGA,090111.00,0616.11372293,N,07535.41060137,W,1,05,2.87,160.00,M,-21.3213,M,,*69
$GPGGA,090112.00,0616.11372293,N,07535.41060137,W,1,05,2.87,160.00,M,-21.3213,M,,*6A
$GPGGA,090113.00,0616.11372293,N,07535.41060137,W,1,05,2.87,160.00,M,-21.3213,M,,*6B
$GPGGA,090114.00,0616.11372293,N,07535.41060137,W,1,05,2.87,160.00,M,-21.3213,M,,*6C
$GPGGA,090115.00,0616.11372293,N,07535.41060137,W,1,05,2.87,160.00,M,-21.3213,M,,*6D
$GPGGA,090116.00,0616.11372293,N,07535.41060137,W,1,05,2.87,160.00,M,-21.3213,M,,*6E
$GPGGA,090117.00,0616.11372293,N,07535.41060137,W,1,05,2.87,160.00,M,-21.3213,M,,*6F
$GPGGA,090118.00,0616.11372293,N,07535.41060137,W,1,05,2.87,160.00,M,-21.3213,M,,*60
$GPGGA,090119.00,0616.11372293,N,07535.41060137,W,1,05,2.87,160.00,M,-21.3213,M,,*61
$GPGGA,090120.00,0616.11372197,N,07535.41060014,W,1,05,2.87,160.00,M,-21.3213,M,,*6C
$GPGGA,090121.00,0616.11371937,N,07535.41059680,W,1,05,2.87,160.00,M,-21.3213,M,,*6D
$GPGGA,090122.00,0616.11371430,N,07535.41059032,W,1,05,2.87,160.00,M,-21.3213,M,,*6B
$GPGGA,090123.00,0616.11373968,N,07535.41062278,W,1,05,2.87,160.00,M,-21.3213,M,,*6C
$GPGGA,090124.00,0616.11372723,N,07535.41060686,W,1,05,2.87,160.00,M,-21.3213,M,,*6C
$GPGGA,090125.00,0616.11374392,N,07535.41062821,W,1,05,2.87,160.00,M,-21.3213,M,,*64
$GPGGA,090126.00,0616.11378992,N,07535.41068702,W,1,05,2.87,160.00,M,-21.3213,M,,*65
$GPGGA,090127.00,0616.11379528,N,07535.41069388,W,1,05,2.87,160.00,M,-21.3213,M,,*6F
$GPGGA,090128.00,0616.11382925,N,07535.41073732,W,1,05,2.87,160.00,M,-21.3213,M,,*6B
$GPGGA,090129.00,0616.11389297,N,07535.41081882,W,1,05,2.87,160.00,M,-21.3213,M,,*6A
$GPGGA,090130.00,0616.11395121,N,07535.41089333,W,1,05,2.87,160.00,M,-21.3213,M,,*68
$GPGGA,090131.00,0616.11400389,N,07535.41096074,W,1,05,2.87,160.00,M,-21.3213,M,,*6C
$GPGGA,090132.00,0616.11409036,N,07535.41107145,W,1,05,2.87,160.00,M,-21.3213,M,,*6B
$GPGGA,090133.00,0616.11413249,N,07535.41112539,W,1,05,2.87,160.00,M,-21.3213,M,,*60
$GPGGA,090134.00,0616.11425160,N,07535.41127803,W,1,05,2.87,160.00,M,-21.3213,M,,*68
$GPGGA,090135.00,0616.11432602,N,07535.41137347,W,1,05,2.87,160.00,M,-21.3213,M,,*66
$GPGGA,090136.00,0616.11443975,N,07535.41151945,W,1,05,2.87,160.00,M,-21.3213,M,,*64
$GPGGA,090137.00,0616.11455097,N,07535.41166235,W,1,05,2.87,160.00,M,-21.3213,M,,*6F
$GPGGA,090138.00,0616.11465940,N,07535.41180182,W,1,05,2.87,160.00,M,-21.3213,M,,*67
$GPGGA,090139.00,0616.11476476,N,07535.41193752,W,1,05,2.87,160.00,M,-21.3213,M,,*65
$GPGGA,090140.00,0616.11491467,N,07535.41213087,W,1,05,2.87,160.00,M,-21.3213,M,,*66
$GPGGA,090141.00,0616.11506292,N,07535.41232244,W,1,05,2.87,160.00,M,-21.3213,M,,*6A
$GPGGA,090142.00,0616.11520912,N,07535.41251173,W,1,05,2.87,160.00,M,-21.3213,M,,*6C
$GPGGA,090143.00,0616.11535288,N,07535.41269826,W,1,05,2.87,160.00,M,-21.3213,M,,*63
$GPGGA,090144.00,0616.11554554,N,07535.41294887,W,1,05,2.87,160.00,M,-21.3213,M,,*6C
$GPGGA,090145.00,0616.11573672,N,07535.41319833,W,1,05,2.87,160.00,M,-21.3213,M,,*64
$GPGGA,090146.00,0616.11587260,N,07535.41337614,W,1,05,2.87,160.00,M,-21.3213,M,,*6C
$GPGGA,090147.00,0616.11605865,N,07535.41362034,W,1,05,2.87,160.00,M,-21.3213,M,,*6F
$GPGGA,090148.00,0616.11629659,N,07535.41393395,W,1,05,2.87,160.00,M,-21.3213,M,,*69
$GPGGA,090149.00,0616.11647723,N,07535.41417311,W,1,05,2.87,160.00,M,-21.3213,M,,*6B
$GPGGA,090150.00,0616.11671009,N,07535.41448287,W,1,05,2.87,160.00,M,-21.3213,M,,*6D
$GPGGA,090151.00,0616.11693995,N,07535.41479038,W,1,05,2.87,160.00,M,-21.3213,M,,*68
$GPGGA,090152.00,0616.11716630,N,07535.41509506,W,1,05,2.87,160.00,M,-21.3213,M,,*69
$GPGGA,090153.00,0616.11738870,N,07535.41539639,W,1,05,2.87,160.00,M,-21.3213,M,,*62
$GPGGA,090154.00,0616.11760680,N,07535.41569379,W,1,05,2.87,160.00,M,-21.3213,M,,*6D
$GPGGA,090155.00,0616.11787800,N,07535.41606613,W,1,05,2.87,160.00,M,-21.3213,M,,*60
$GPGGA,090156.00,0616.11814485,N,07535.41643511,W,1,05,2.87,160.00,M,-21.3213,M,,*67
$GPGGA,090157.00,0616.11834890,N,07535.41671895,W,1,05,2.87,160.00,M,-21.3213,M,,*6C
$GPGGA,090158.00,0616.11866419,N,07535.41716035,W,1,05,2.87,160.00,M,-21.3213,M,,*6B
$GPGGA,090159.00,0616.11891608,N,07535.41751541,W,1,05,2.87,160.00,M,-21.3213,M,,*65
$GPGGA,090200.00,0616.11922148,N,07535.41794879,W,1,05,2.87,160.00,M,-21.3213,M,,*6F
$GPGGA,090201.00,0616.11946209,N,07535.41829247,W,1,05,2.87,160.00,M,-21.3213,M,,*64
$GPGGA,090202.00,0616.11975519,N,07535.41871387,W,1,05,2.87,160.00,M,-21.3213,M,,*61
$GPGGA,090203.00,0616.12010047,N,07535.41921427,W,1,05,2.87,160.00,M,-21.3213,M,,*6E
$GPGGA,090204.00,0616.12038062,N,07535.41962363,W,1,05,2.87,160.00,M,-21.3213,M,,*64
$GPGGA,090205.00,0616.12071264,N,07535.42011289,W,1,05,2.87,160.00,M,-21.3213,M,,*67
$GPGGA,090206.00,0616.12098036,N,07535.42051087,W,1,05,2.87,160.00,M,-21.3213,M,,*6E
$GPGGA,090207.00,0616.12130041,N,07535.42099109,W,1,05,2.87,160.00,M,-21.3213,M,,*6F
$GPGGA,090208.00,0616.12161487,N,07535.42146808,W,1,05,2.87,160.00,M,-21.3213,M,,*61
$GPGGA,090209.00,0616.12198104,N,07535.42203069,W,1,05,2.87,160.00,M,-21.3213,M,,*65
$GPGGA,090210.00,0616.12228476,N,07535.42250396,W,1,05,2.87,160.00,M,-21.3213,M,,*60
$GPGGA,090211.00,0616.12258369,N,07535.42297639,W,1,05,2.87,160.00,M,-21.3213,M,,*64
$GPGGA,090212.00,0616.12293324,N,07535.42353837,W,1,05,2.87,160.00,M,-21.3213,M,,*60
$GPGGA,090213.00,0616.12322245,N,07535.42401232,W,1,05,2.87,160.00,M,-21.3213,M,,*63
$GPGGA,090214.00,0616.12356071,N,07535.42457871,W,1,05,2.87,160.00,M,-21.3213,M,,*6C
$GPGGA,090215.00,0616.12383970,N,07535.42505733,W,1,05,2.87,160.00,M,-21.3213,M,,*62
$GPGGA,090216.00,0616.12411322,N,07535.42553846,W,1,05,2.87,160.00,M,-21.3213,M,,*6E
$GPGGA,090217.00,0616.12443117,N,07535.42611523,W,1,05,2.87,160.00,M,-21.3213,M,,*67
$GPGGA,090218.00,0616.12469226,N,07535.42660504,W,1,05,2.87,160.00,M,-21.3213,M,,*62
$GPGGA,090219.00,0616.12499472,N,07535.42719395,W,1,05,2.87,160.00,M,-21.3213,M,,*6A
$GPGGA,090220.00,0616.12524264,N,07535.42769714,W,1,05,2.87,160.00,M,-21.3213,M,,*6C
$GPGGA,090221.00,0616.12548410,N,07535.42820873,W,1,05,2.87,160.00,M,-21.3213,M,,*6E
$GPGGA,090222.00,0616.12571814,N,07535.42872944,W,1,05,2.87,160.00,M,-21.3213,M,,*6D
$GPGGA,090223.00,0616.12594298,N,07535.42925860,W,1,05,2.87,160.00,M,-21.3213,M,,*6D
$GPGGA,090224.00,0616.12615665,N,07535.42979540,W,1,05,2.87,160.00,M,-21.3213,M,,*60
$GPGGA,090225.00,0616.12635711,N,07535.43033914,W,1,05,2.87,160.00,M,-21.3213,M,,*6A
$GPGGA,090226.00,0616.12651050,N,07535.43079087,W,1,05,2.87,160.00,M,-21.3213,M,,*64
$GPGGA,090227.00,0616.12664604,N,07535.43122547,W,1,05,2.87,160.00,M,-21.3213,M,,*62
$GPGGA,090228.00,0616.12677615,N,07535.43168484,W,1,05,2.87,160.00,M,-21.3213,M,,*6F
$GPGGA,090229.00,0616.12691888,N,07535.43224842,W,1,05,2.87,160.00,M,-21.3213,M,,*61
$GPGGA,090230.00,0616.12704576,N,07535.43281582,W,1,05,2.87,160.00,M,-21.3213,M,,*66
$GPGGA,090231.00,0616.12715855,N,07535.43338880,W,1,05,2.87,160.00,M,-21.3213,M,,*67
$GPGGA,090232.00,0616.12724135,N,07535.43386337,W,1,05,2.87,160.00,M,-21.3213,M,,*6B
$GPGGA,090233.00,0616.12733061,N,07535.43444351,W,1,05,2.87,160.00,M,-21.3213,M,,*65
$GPGGA,090234.00,0616.12740810,N,07535.43502685,W,1,05,2.87,160.00,M,-21.3213,M,,*67
$GPGGA,090235.00,0616.12746350,N,07535.43550927,W,1,05,2.87,160.00,M,-21.3213,M,,*6F
$GPGGA,090236.00,0616.12752100,N,07535.43609726,W,1,05,2.87,160.00,M,-21.3213,M,,*6E
$GPGGA,090237.00,0616.12756810,N,07535.43668706,W,1,05,2.87,160.00,M,-21.3213,M,,*66
$GPGGA,090238.00,0616.12759927,N,07535.43717398,W,1,05,2.87,160.00,M,-21.3213,M,,*69
$GPGGA,090239.00,0616.12762794,N,07535.43776588,W,1,05,2.87,160.00,M,-21.3213,M,,*66
$GPGGA,090240.00,0616.12764658,N,07535.43835824,W,1,05,2.87,160.00,M,-21.3213,M,,*6C
$GPGGA,090241.00,0616.12765434,N,07535.43884625,W,1,05,2.87,160.00,M,-21.3213,M,,*61
$GPGGA,090242.00,0616.12765433,N,07535.43943823,W,1,05,2.87,160.00,M,-21.3213,M,,*67
$GPGGA,090243.00,0616.12764371,N,07535.44002936,W,1,05,2.87,160.00,M,-21.3213,M,,*68
$GPGGA,090244.00,0616.12762664,N,07535.44051520,W,1,05,2.87,160.00,M,-21.3213,M,,*65
$GPGGA,090245.00,0616.12759535,N,07535.44110359,W,1,05,2.87,160.00,M,-21.3213,M,,*67
$GPGGA,090246.00,0616.12755180,N,07535.44168993,W,1,05,2.87,160.00,M,-21.3213,M,,*61
$GPGGA,090247.00,0616.12750614,N,07535.44217062,W,1,05,2.87,160.00,M,-21.3213,M,,*63
$GPGGA,090248.00,0616.12743789,N,07535.44275213,W,1,05,2.87,160.00,M,-21.3213,M,,*6B
$GPGGA,090249.00,0616.12735451,N,07535.44333058,W,1,05,2.87,160.00,M,-21.3213,M,,*63
$GPGGA,090250.00,0616.12727359,N,07535.44380389,W,1,05,2.87,160.00,M,-21.3213,M,,*60
$GPGGA,090251.00,0616.12722632,N,07535.44405144,W,1,05,2.87,160.00,M,-21.3213,M,,*65
$GPGGA,090252.00,0616.12712697,N,07535.44452119,W,1,05,2.87,160.00,M,-21.3213,M,,*60
$GPGGA,090253.00,0616.12699060,N,07535.44508940,W,1,05,2.87,160.00,M,-21.3213,M,,*67
$GPGGA,090254.00,0616.12683868,N,07535.44565358,W,1,05,2.87,160.00,M,-21.3213,M,,*63
$GPGGA,090255.00,0616.12670230,N,07535.44611665,W,1,05,2.87,160.00,M,-21.3213,M,,*62
$GPGGA,090256.00,0616.12652383,N,07535.44667676,W,1,05,2.87,160.00,M,-21.3213,M,,*6B
$GPGGA,090257.00,0616.12633217,N,07535.44723391,W,1,05,2.87,160.00,M,-21.3213,M,,*6C
$GPGGA,090258.00,0616.12612796,N,07535.44778793,W,1,05,2.87,160.00,M,-21.3213,M,,*64
$GPGGA,090259.00,0616.12595067,N,07535.44824178,W,1,05,2.87,160.00,M,-21.3213,M,,*65
$GPGGA,090300.00,0616.12572473,N,07535.44878951,W,1,05,2.87,160.00,M,-21.3213,M,,*6A
$GPGGA,090301.00,0616.12552992,N,07535.44923788,W,1,05,2.87,160.00,M,-21.3213,M,,*6E
$GPGGA,090302.00,0616.12528307,N,07535.44977816,W,1,05,2.87,160.00,M,-21.3213,M,,*6F
$GPGGA,090303.00,0616.12502480,N,07535.45031371,W,1,05,2.87,160.00,M,-21.3213,M,,*6E
$GPGGA,090304.00,0616.12480324,N,07535.45075124,W,1,05,2.87,160.00,M,-21.3213,M,,*69
$GPGGA,090305.00,0616.12476113,N,07535.45083225,W,1,05,2.87,160.00,M,-21.3213,M,,*6C
$GPGGA,090306.00,0616.12453016,N,07535.45126535,W,1,05,2.87,160.00,M,-21.3213,M,,*64
$GPGGA,090307.00,0616.12424004,N,07535.45178597,W,1,05,2.87,160.00,M,-21.3213,M,,*65
$GPGGA,090308.00,0616.12399393,N,07535.45221041,W,1,05,2.87,160.00,M,-21.3213,M,,*67
$GPGGA,090309.00,0616.12368633,N,07535.45272195,W,1,05,2.87,160.00,M,-21.3213,M,,*69
$GPGGA,090310.00,0616.12337030,N,07535.45322866,W,1,05,2.87,160.00,M,-21.3213,M,,*6F
$GPGGA,090311.00,0616.12310387,N,07535.45364281,W,1,05,2.87,160.00,M,-21.3213,M,,*65
$GPGGA,090312.00,0616.12277416,N,07535.45414066,W,1,05,2.87,160.00,M,-21.3213,M,,*62
$GPGGA,090313.00,0616.12243775,N,07535.45463351,W,1,05,2.87,160.00,M,-21.3213,M,,*65
$GPGGA,090314.00,0616.12215574,N,07535.45503584,W,1,05,2.87,160.00,M,-21.3213,M,,*6B
$GPGGA,090315.00,0616.12180829,N,07535.45551892,W,1,05,2.87,160.00,M,-21.3213,M,,*6D
$GPGGA,090316.00,0616.12151783,N,07535.45591263,W,1,05,2.87,160.00,M,-21.3213,M,,*65
$GPGGA,090317.00,0616.12116051,N,07535.45638480,W,1,05,2.87,160.00,M,-21.3213,M,,*64
$GPGGA,090318.00,0616.12079807,N,07535.45685045,W,1,05,2.87,160.00,M,-21.3213,M,,*63
$GPGGA,090319.00,0616.12049607,N,07535.45722839,W,1,05,2.87,160.00,M,-21.3213,M,,*60
$GPGGA,090320.00,0616.12012480,N,07535.45768055,W,1,05,2.87,160.00,M,-21.3213,M,,*65
$GPGGA,090321.00,0616.11990823,N,07535.45793796,W,1,05,2.87,160.00,M,-21.3213,M,,*6D
$GPGGA,090322.00,0616.11959736,N,07535.45829960,W,1,05,2.87,160.00,M,-21.3213,M,,*69
$GPGGA,090323.00,0616.11921631,N,07535.45873257,W,1,05,2.87,160.00,M,-21.3213,M,,*61
$GPGGA,090324.00,0616.11883429,N,07535.45915804,W,1,05,2.87,160.00,M,-21.3213,M,,*69
$GPGGA,090325.00,0616.11845140,N,07535.45957842,W,1,05,2.87,160.00,M,-21.3213,M,,*6C
$GPGGA,090326.00,0616.11807000,N,07535.45999356,W,1,05,2.87,160.00,M,-21.3213,M,,*60
$GPGGA,090327.00,0616.11769169,N,07535.46040402,W,1,05,2.87,160.00,M,-21.3213,M,,*60
$GPGGA,090328.00,0616.11731810,N,07535.46081027,W,1,05,2.87,160.00,M,-21.3213,M,,*6B
$GPGGA,090329.00,0616.11695085,N,07535.46121269,W,1,05,2.87,160.00,M,-21.3213,M,,*62
$GPGGA,090330.00,0616.11659160,N,07535.46161160,W,1,05,2.87,160.00,M,-21.3213,M,,*6E
$GPGGA,090331.00,0616.11624201,N,07535.46200723,W,1,05,2.87,160.00,M,-21.3213,M,,*64
$GPGGA,090332.00,0616.11584100,N,07535.46247388,W,1,05,2.87,160.00,M,-21.3213,M,,*6A
$GPGGA,090333.00,0616.11551767,N,07535.46286371,W,1,05,2.87,160.00,M,-21.3213,M,,*6F
$GPGGA,090334.00,0616.11515107,N,07535.46332571,W,1,05,2.87,160.00,M,-21.3213,M,,*60
$GPGGA,090335.00,0616.11480637,N,07535.46378584,W,1,05,2.87,160.00,M,-21.3213,M,,*6C
$GPGGA,090336.00,0616.11448537,N,07535.46424317,W,1,05,2.87,160.00,M,-21.3213,M,,*6A
$GPGGA,090337.00,0616.11418981,N,07535.46469659,W,1,05,2.87,160.00,M,-21.3213,M,,*69
$GPGGA,090338.00,0616.11392136,N,07535.46514500,W,1,05,2.87,160.00,M,-21.3213,M,,*63
$GPGGA,090339.00,0616.11364211,N,07535.46566529,W,1,05,2.87,160.00,M,-21.3213,M,,*63
$GPGGA,090340.00,0616.11340315,N,07535.46617980,W,1,05,2.87,160.00,M,-21.3213,M,,*64
$GPGGA,090341.00,0616.11320704,N,07535.46668811,W,1,05,2.87,160.00,M,-21.3213,M,,*66
$GPGGA,090342.00,0616.11305609,N,07535.46719075,W,1,05,2.87,160.00,M,-21.3213,M,,*63
$GPGGA,090343.00,0616.11294073,N,07535.46777056,W,1,05,2.87,160.00,M,-21.3213,M,,*69
$GPGGA,090344.00,0616.11291225,N,07535.46801873,W,1,05,2.87,160.00,M,-21.3213,M,,*6B
$GPGGA,090345.00,0616.11289367,N,07535.46852253,W,1,05,2.87,160.00,M,-21.3213,M,,*6A
$GPGGA,090346.00,0616.11293156,N,07535.46911838,W,1,05,2.87,160.00,M,-21.3213,M,,*63
$GPGGA,090347.00,0616.11301110,N,07535.46964494,W,1,05,2.87,160.00,M,-21.3213,M,,*62
$GPGGA,090348.00,0616.11313188,N,07535.47018833,W,1,05,2.87,160.00,M,-21.3213,M,,*6D
$GPGGA,090349.00,0616.11329167,N,07535.47074823,W,1,05,2.87,160.00,M,-21.3213,M,,*6F
$GPGGA,090350.00,0616.11345790,N,07535.47124077,W,1,05,2.87,160.00,M,-21.3213,M,,*6E
$GPGGA,090351.00,0616.11365135,N,07535.47174915,W,1,05,2.87,160.00,M,-21.3213,M,,*6C
$GPGGA,090352.00,0616.11383427,N,07535.47218918,W,1,05,2.87,160.00,M,-21.3213,M,,*65
$GPGGA,090353.00,0616.11403635,N,07535.47264521,W,1,05,2.87,160.00,M,-21.3213,M,,*67
$GPGGA,090354.00,0616.11425659,N,07535.47311779,W,1,05,2.87,160.00,M,-21.3213,M,,*62
$GPGGA,090355.00,0616.11449366,N,07535.47360757,W,1,05,2.87,160.00,M,-21.3213,M,,*6A
$GPGGA,090356.00,0616.11470307,N,07535.47402961,W,1,05,2.87,160.00,M,-21.3213,M,,*6C
$GPGGA,090357.00,0616.11492358,N,07535.47446779,W,1,05,2.87,160.00,M,-21.3213,M,,*6C
$GPGGA,090358.00,0616.11510930,N,07535.47483459,W,1,05,2.87,160.00,M,-21.3213,M,,*64
$GPGGA,090359.00,0616.11530132,N,07535.47521405,W,1,05,2.87,160.00,M,-21.3213,M,,*6D
$GPGGA,090400.00,0616.11549787,N,07535.47560491,W,1,05,2.87,160.00,M,-21.3213,M,,*68
$GPGGA,090401.00,0616.11569701,N,07535.47600604,W,1,05,2.87,160.00,M,-21.3213,M,,*6E
$GPGGA,090402.00,0616.11589674,N,07535.47641635,W,1,05,2.87,160.00,M,-21.3213,M,,*67
$GPGGA,090403.00,0616.11605340,N,07535.47674596,W,1,05,2.87,160.00,M,-21.3213,M,,*6F
$GPGGA,090404.00,0616.11624928,N,07535.47717101,W,1,05,2.87,160.00,M,-21.3213,M,,*61
$GPGGA,090405.00,0616.11640058,N,07535.47751205,W,1,05,2.87,160.00,M,-21.3213,M,,*69
$GPGGA,090406.00,0616.11650798,N,07535.47776262,W,1,05,2.87,160.00,M,-21.3213,M,,*64
$GPGGA,090407.00,0616.11665115,N,07535.47810984,W,1,05,2.87,160.00,M,-21.3213,M,,*6C
$GPGGA,090408.00,0616.11678908,N,07535.47846001,W,1,05,2.87,160.00,M,-21.3213,M,,*6C
$GPGGA,090409.00,0616.11695512,N,07535.47890484,W,1,05,2.87,160.00,M,-21.3213,M,,*6B
$GPGGA,090410.00,0616.11708063,N,07535.47926040,W,1,05,2.87,160.00,M,-21.3213,M,,*65
$GPGGA,090411.00,0616.11723081,N,07535.47971176,W,1,05,2.87,160.00,M,-21.3213,M,,*67
$GPGGA,090412.00,0616.11734302,N,07535.48007114,W,1,05,2.87,160.00,M,-21.3213,M,,*69
$GPGGA,090413.00,0616.11744901,N,07535.48043169,W,1,05,2.87,160.00,M,-21.3213,M,,*6C
$GPGGA,090414.00,0616.11757356,N,07535.48088832,W,1,05,2.87,160.00,M,-21.3213,M,,*61
$GPGGA,090415.00,0616.11766447,N,07535.48125066,W,1,05,2.87,160.00,M,-21.3213,M,,*6A
$GPGGA,090416.00,0616.11776913,N,07535.48170913,W,1,05,2.87,160.00,M,-21.3213,M,,*6F
$GPGGA,090417.00,0616.11784336,N,07535.48207209,W,1,05,2.87,160.00,M,-21.3213,M,,*6D
$GPGGA,090418.00,0616.11790965,N,07535.48243492,W,1,05,2.87,160.00,M,-21.3213,M,,*6F
$GPGGA,090419.00,0616.11798150,N,07535.48289388,W,1,05,2.87,160.00,M,-21.3213,M,,*62
$GPGGA,090420.00,0616.11802821,N,07535.48325612,W,1,05,2.87,160.00,M,-21.3213,M,,*6A
$GPGGA,090421.00,0616.11807379,N,07535.48371457,W,1,05,2.87,160.00,M,-21.3213,M,,*6A
$GPGGA,090422.00,0616.11808555,N,07535.48386869,W,1,05,2.87,160.00,M,-21.3213,M,,*67
$GPGGA,090423.00,0616.11810586,N,07535.48422990,W,1,05,2.87,160.00,M,-21.3213,M,,*6F
$GPGGA,090424.00,0616.11811749,N,07535.48468711,W,1,05,2.87,160.00,M,-21.3213,M,,*61
$GPGGA,090425.00,0616.11811591,N,07535.48504583,W,1,05,2.87,160.00,M,-21.3213,M,,*65
$GPGGA,090426.00,0616.11810066,N,07535.48550066,W,1,05,2.87,160.00,M,-21.3213,M,,*65
$GPGGA,090427.00,0616.11807836,N,07535.48585869,W,1,05,2.87,160.00,M,-21.3213,M,,*60
$GPGGA,090428.00,0616.11803696,N,07535.48631300,W,1,05,2.87,160.00,M,-21.3213,M,,*67
$GPGGA,090429.00,0616.11799369,N,07535.48667300,W,1,05,2.87,160.00,M,-21.3213,M,,*6C
$GPGGA,090430.00,0616.11792504,N,07535.48713000,W,1,05,2.87,160.00,M,-21.3213,M,,*63
$GPGGA,090431.00,0616.11785877,N,07535.48749536,W,1,05,2.87,160.00,M,-21.3213,M,,*62
$GPGGA,090432.00,0616.11778098,N,07535.48786488,W,1,05,2.87,160.00,M,-21.3213,M,,*6D
$GPGGA,090433.00,0616.11769083,N,07535.48823814,W,1,05,2.87,160.00,M,-21.3213,M,,*6F
$GPGGA,090434.00,0616.11758772,N,07535.48861338,W,1,05,2.87,160.00,M,-21.3213,M,,*60
$GPGGA,090435.00,0616.11747109,N,07535.48898876,W,1,05,2.87,160.00,M,-21.3213,M,,*62
$GPGGA,090436.00,0616.11737284,N,07535.48927358,W,1,05,2.87,160.00,M,-21.3213,M,,*62
$GPGGA,090437.00,0616.11723091,N,07535.48964519,W,1,05,2.87,160.00,M,-21.3213,M,,*64
$GPGGA,090438.00,0616.11711263,N,07535.48992543,W,1,05,2.87,160.00,M,-21.3213,M,,*63
$GPGGA,090439.00,0616.11708204,N,07535.48999414,W,1,05,2.87,160.00,M,-21.3213,M,,*63
$GPGGA,090440.00,0616.11695292,N,07535.49026966,W,1,05,2.87,160.00,M,-21.3213,M,,*63
$GPGGA,090441.00,0616.11677172,N,07535.49062418,W,1,05,2.87,160.00,M,-21.3213,M,,*67
$GPGGA,090442.00,0616.11657886,N,07535.49097002,W,1,05,2.87,160.00,M,-21.3213,M,,*61
$GPGGA,090443.00,0616.11642535,N,07535.49122691,W,1,05,2.87,160.00,M,-21.3213,M,,*62
$GPGGA,090444.00,0616.11621580,N,07535.49155648,W,1,05,2.87,160.00,M,-21.3213,M,,*6A
$GPGGA,090445.00,0616.11599928,N,07535.49187579,W,1,05,2.87,160.00,M,-21.3213,M,,*6B
$GPGGA,090446.00,0616.11577736,N,07535.49218445,W,1,05,2.87,160.00,M,-21.3213,M,,*62
$GPGGA,090447.00,0616.11555049,N,07535.49248345,W,1,05,2.87,160.00,M,-21.3213,M,,*6E
$GPGGA,090448.00,0616.11531867,N,07535.49277403,W,1,05,2.87,160.00,M,-21.3213,M,,*6E
$GPGGA,090449.00,0616.11501883,N,07535.49313036,W,1,05,2.87,160.00,M,-21.3213,M,,*67
$GPGGA,090450.00,0616.11477477,N,07535.49340602,W,1,05,2.87,160.00,M,-21.3213,M,,*6F
$GPGGA,090451.00,0616.11452495,N,07535.49367621,W,1,05,2.87,160.00,M,-21.3213,M,,*61
$GPGGA,090452.00,0616.11420075,N,07535.49401033,W,1,05,2.87,160.00,M,-21.3213,M,,*6F
$GPGGA,090453.00,0616.11393715,N,07535.49426935,W,1,05,2.87,160.00,M,-21.3213,M,,*6A
$GPGGA,090454.00,0616.11359631,N,07535.49458863,W,1,05,2.87,160.00,M,-21.3213,M,,*67
$GPGGA,090455.00,0616.11331996,N,07535.49483522,W,1,05,2.87,160.00,M,-21.3213,M,,*64
$GPGGA,090456.00,0616.11303830,N,07535.49507580,W,1,05,2.87,160.00,M,-21.3213,M,,*6E
$GPGGA,090457.00,0616.11267545,N,07535.49537023,W,1,05,2.87,160.00,M,-21.3213,M,,*6C
$GPGGA,090458.00,0616.11238214,N,07535.49559581,W,1,05,2.87,160.00,M,-21.3213,M,,*6F
$GPGGA,090459.00,0616.11208382,N,07535.49581411,W,1,05,2.87,160.00,M,-21.3213,M,,*6E
$GPGGA,090500.00,0616.11170001,N,07535.49607858,W,1,05,2.87,160.00,M,-21.3213,M,,*6B
$GPGGA,090501.00,0616.11139015,N,07535.49627876,W,1,05,2.87,160.00,M,-21.3213,M,,*6C
$GPGGA,090502.00,0616.11099138,N,07535.49651888,W,1,05,2.87,160.00,M,-21.3213,M,,*6A
$GPGGA,090503.00,0616.11095670,N,07535.49653882,W,1,05,2.87,160.00,M,-21.3213,M,,*64
$GPGGA,090504.00,0616.11063405,N,07535.49671751,W,1,05,2.87,160.00,M,-21.3213,M,,*6B
$GPGGA,090505.00,0616.11030619,N,07535.49688726,W,1,05,2.87,160.00,M,-21.3213,M,,*65
$GPGGA,090506.00,0616.10988623,N,07535.49708891,W,1,05,2.87,160.00,M,-21.3213,M,,*6E
$GPGGA,090507.00,0616.10954789,N,07535.49723965,W,1,05,2.87,160.00,M,-21.3213,M,,*6C
$GPGGA,090508.00,0616.10911532,N,07535.49741843,W,1,05,2.87,160.00,M,-21.3213,M,,*61
$GPGGA,090509.00,0616.10876837,N,07535.49755127,W,1,05,2.87,160.00,M,-21.3213,M,,*66
$GPGGA,090510.00,0616.10841821,N,07535.49767644,W,1,05,2.87,160.00,M,-21.3213,M,,*6E
$GPGGA,090511.00,0616.10797256,N,07535.49782341,W,1,05,2.87,160.00,M,-21.3213,M,,*6A
$GPGGA,090512.00,0616.10761650,N,07535.49793129,W,1,05,2.87,160.00,M,-21.3213,M,,*6E
$GPGGA,090513.00,0616.10725845,N,07535.49803153,W,1,05,2.87,160.00,M,-21.3213,M,,*6E
$GPGGA,090514.00,0616.10680441,N,07535.49814693,W,1,05,2.87,160.00,M,-21.3213,M,,*62
$GPGGA,090515.00,0616.10644300,N,07535.49822951,W,1,05,2.87,160.00,M,-21.3213,M,,*6D
$GPGGA,090516.00,0616.10607980,N,07535.49830424,W,1,05,2.87,160.00,M,-21.3213,M,,*67
$GPGGA,090517.00,0616.10561846,N,07535.49838707,W,1,05,2.87,160.00,M,-21.3213,M,,*64
$GPGGA,090518.00,0616.10524852,N,07535.49844352,W,1,05,2.87,160.00,M,-21.3213,M,,*60
$GPGGA,090519.00,0616.10487377,N,07535.49849139,W,1,05,2.87,160.00,M,-21.3213,M,,*67
$GPGGA,090520.00,0616.10449310,N,07535.49853010,W,1,05,2.87,160.00,M,-21.3213,M,,*6F
$GPGGA,090521.00,0616.10410546,N,07535.49855877,W,1,05,2.87,160.00,M,-21.3213,M,,*68
$GPGGA,090522.00,0616.10371106,N,07535.49857627,W,1,05,2.87,160.00,M,-21.3213,M,,*62
$GPGGA,090523.00,0616.10340708,N,07535.49858131,W,1,05,2.87,160.00,M,-21.3213,M,,*66
$GPGGA,090524.00,0616.10300338,N,07535.49857588,W,1,05,2.87,160.00,M,-21.3213,M,,*6B
$GPGGA,090525.00,0616.10259722,N,07535.49855563,W,1,05,2.87,160.00,M,-21.3213,M,,*6F
$GPGGA,090526.00,0616.10228512,N,07535.49852920,W,1,05,2.87,160.00,M,-21.3213,M,,*67
$GPGGA,090527.00,0616.10203574,N,07535.49850091,W,1,05,2.87,160.00,M,-21.3213,M,,*6E
$GPGGA,090528.00,0616.10172376,N,07535.49845623,W,1,05,2.87,160.00,M,-21.3213,M,,*6B
$GPGGA,090529.00,0616.10131861,N,07535.49838363,W,1,05,2.87,160.00,M,-21.3213,M,,*6B
$GPGGA,090530.00,0616.10101095,N,07535.49831813,W,1,05,2.87,160.00,M,-21.3213,M,,*66
$GPGGA,090531.00,0616.10061181,N,07535.49822081,W,1,05,2.87,160.00,M,-21.3213,M,,*65
$GPGGA,090532.00,0616.10031092,N,07535.49813875,W,1,05,2.87,160.00,M,-21.3213,M,,*61
$GPGGA,090533.00,0616.09992172,N,07535.49802234,W,1,05,2.87,160.00,M,-21.3213,M,,*68
$GPGGA,090534.00,0616.09953911,N,07535.49789736,W,1,05,2.87,160.00,M,-21.3213,M,,*64
$GPGGA,090535.00,0616.09916412,N,07535.49776546,W,1,05,2.87,160.00,M,-21.3213,M,,*6F
$GPGGA,090536.00,0616.09879777,N,07535.49762827,W,1,05,2.87,160.00,M,-21.3213,M,,*6B
$GPGGA,090537.00,0616.09844108,N,07535.49748736,W,1,05,2.87,160.00,M,-21.3213,M,,*6D
$GPGGA,090538.00,0616.09800227,N,07535.49730486,W,1,05,2.87,160.00,M,-21.3213,M,,*6B
$GPGGA,090539.00,0616.09766674,N,07535.49715898,W,1,05,2.87,160.00,M,-21.3213,M,,*63
$GPGGA,090540.00,0616.09724917,N,07535.49697042,W,1,05,2.87,160.00,M,-21.3213,M,,*65
$GPGGA,090541.00,0616.09684206,N,07535.49677967,W,1,05,2.87,160.00,M,-21.3213,M,,*64
$GPGGA,090542.00,0616.09635313,N,07535.49654236,W,1,05,2.87,160.00,M,-21.3213,M,,*66
$GPGGA,090543.00,0616.09596669,N,07535.49634904,W,1,05,2.87,160.00,M,-21.3213,M,,*69
$GPGGA,090544.00,0616.09549845,N,07535.49610857,W,1,05,2.87,160.00,M,-21.3213,M,,*6D
$GPGGA,090545.00,0616.09504049,N,07535.49586744,W,1,05,2.87,160.00,M,-21.3213,M,,*60
$GPGGA,090546.00,0616.09450096,N,07535.49557658,W,1,05,2.87,160.00,M,-21.3213,M,,*61
$GPGGA,090547.00,0616.09406348,N,07535.49533591,W,1,05,2.87,160.00,M,-21.3213,M,,*67
$GPGGA,090548.00,0616.09354448,N,07535.49504544,W,1,05,2.87,160.00,M,-21.3213,M,,*63
$GPGGA,090549.00,0616.09303575,N,07535.49475605,W,1,05,2.87,160.00,M,-21.3213,M,,*6E
$GPGGA,090550.00,0616.09253725,N,07535.49446855,W,1,05,2.87,160.00,M,-21.3213,M,,*6E
$GPGGA,090551.00,0616.09204901,N,07535.49418363,W,1,05,2.87,160.00,M,-21.3213,M,,*60
$GPGGA,090552.00,0616.09147945,N,07535.49384766,W,1,05,2.87,160.00,M,-21.3213,M,,*64
$GPGGA,090553.00,0616.09101174,N,07535.49356926,W,1,05,2.87,160.00,M,-21.3213,M,,*68
$GPGGA,090554.00,0616.09046277,N,07535.49324004,W,1,05,2.87,160.00,M,-21.3213,M,,*61
$GPGGA,090555.00,0616.08983254,N,07535.49285939,W,1,05,2.87,160.00,M,-21.3213,M,,*6D
$GPGGA,090556.00,0616.08930418,N,07535.49253848,W,1,05,2.87,160.00,M,-21.3213,M,,*64
$GPGGA,090557.00,0616.08869452,N,07535.49216667,W,1,05,2.87,160.00,M,-21.3213,M,,*64
$GPGGA,090558.00,0616.08809488,N,07535.49179986,W,1,05,2.87,160.00,M,-21.3213,M,,*60
$GPGGA,090559.00,0616.08750430,N,07535.49143796,W,1,05,2.87,160.00,M,-21.3213,M,,*67
$GPGGA,090600.00,0616.08692165,N,07535.49108073,W,1,05,2.87,160.00,M,-21.3213,M,,*61
$GPGGA,090601.00,0616.08625394,N,07535.49067143,W,1,05,2.87,160.00,M,-21.3213,M,,*6A
$GPGGA,090602.00,0616.08568403,N,07535.49032197,W,1,05,2.87,160.00,M,-21.3213,M,,*63
$GPGGA,090603.00,0616.08502718,N,07535.48991882,W,1,05,2.87,160.00,M,-21.3213,M,,*6B
$GPGGA,090604.00,0616.08437443,N,07535.48951748,W,1,05,2.87,160.00,M,-21.3213,M,,*63
$GPGGA,090605.00,0616.08372493,N,07535.48911714,W,1,05,2.87,160.00,M,-21.3213,M,,*64
$GPGGA,090606.00,0616.08307780,N,07535.48871692,W,1,05,2.87,160.00,M,-21.3213,M,,*6C
$GPGGA,090607.00,0616.08252396,N,07535.48837308,W,1,05,2.87,160.00,M,-21.3213,M,,*6B
$GPGGA,090608.00,0616.08187907,N,07535.48797083,W,1,05,2.87,160.00,M,-21.3213,M,,*68
$GPGGA,090609.00,0616.08123388,N,07535.48756594,W,1,05,2.87,160.00,M,-21.3213,M,,*64
$GPGGA,090610.00,0616.08059122,N,07535.48715974,W,1,05,2.87,160.00,M,-21.3213,M,,*67
$GPGGA,090611.00,0616.07995014,N,07535.48675108,W,1,05,2.87,160.00,M,-21.3213,M,,*60
$GPGGA,090612.00,0616.07931100,N,07535.48633960,W,1,05,2.87,160.00,M,-21.3213,M,,*6D
$GPGGA,090613.00,0616.07867418,N,07535.48592484,W,1,05,2.87,160.00,M,-21.3213,M,,*6D
$GPGGA,090614.00,0616.07804008,N,07535.48550631,W,1,05,2.87,160.00,M,-21.3213,M,,*68
$GPGGA,090615.00,0616.07740919,N,07535.48508341,W,1,05,2.87,160.00,M,-21.3213,M,,*60
$GPGGA,090616.00,0616.07678200,N,07535.48465545,W,1,05,2.87,160.00,M,-21.3213,M,,*62
$GPGGA,090617.00,0616.07615909,N,07535.48422164,W,1,05,2.87,160.00,M,-21.3213,M,,*6E
$GPGGA,090618.00,0616.07554108,N,07535.48378103,W,1,05,2.87,160.00,M,-21.3213,M,,*67
$GPGGA,090619.00,0616.07492867,N,07535.48333254,W,1,05,2.87,160.00,M,-21.3213,M,,*63
$GPGGA,090620.00,0616.07432204,N,07535.48287572,W,1,05,2.87,160.00,M,-21.3213,M,,*61
$GPGGA,090621.00,0616.07372045,N,07535.48241144,W,1,05,2.87,160.00,M,-21.3213,M,,*6F
$GPGGA,090622.00,0616.07312316,N,07535.48194065,W,1,05,2.87,160.00,M,-21.3213,M,,*66
$GPGGA,090623.00,0616.07252955,N,07535.48146417,W,1,05,2.87,160.00,M,-21.3213,M,,*61
$GPGGA,090624.00,0616.07202278,N,07535.48105138,W,1,05,2.87,160.00,M,-21.3213,M,,*68
$GPGGA,090625.00,0616.07143462,N,07535.48056615,W,1,05,2.87,160.00,M,-21.3213,M,,*6D
$GPGGA,090626.00,0616.07084883,N,07535.48007710,W,1,05,2.87,160.00,M,-21.3213,M,,*67
$GPGGA,090627.00,0616.07026505,N,07535.47958473,W,1,05,2.87,160.00,M,-21.3213,M,,*67
$GPGGA,090628.00,0616.06968300,N,07535.47908948,W,1,05,2.87,160.00,M,-21.3213,M,,*69
$GPGGA,090629.00,0616.06910242,N,07535.47859176,W,1,05,2.87,160.00,M,-21.3213,M,,*60
$GPGGA,090630.00,0616.06852308,N,07535.47809191,W,1,05,2.87,160.00,M,-21.3213,M,,*6C
$GPGGA,090631.00,0616.06794478,N,07535.47759025,W,1,05,2.87,160.00,M,-21.3213,M,,*6C
$GPGGA,090632.00,0616.06736736,N,07535.47708706,W,1,05,2.87,160.00,M,-21.3213,M,,*6C
$GPGGA,090633.00,0616.06687231,N,07535.47665411,W,1,05,2.87,160.00,M,-21.3213,M,,*6B
$GPGGA,090634.00,0616.06629609,N,07535.47614869,W,1,05,2.87,160.00,M,-21.3213,M,,*62
$GPGGA,090635.00,0616.06572035,N,07535.47564238,W,1,05,2.87,160.00,M,-21.3213,M,,*6D
$GPGGA,090636.00,0616.06514495,N,07535.47513538,W,1,05,2.87,160.00,M,-21.3213,M,,*67
$GPGGA,090637.00,0616.06456978,N,07535.47462786,W,1,05,2.87,160.00,M,-21.3213,M,,*6F
$GPGGA,090638.00,0616.06399474,N,07535.47411998,W,1,05,2.87,160.00,M,-21.3213,M,,*60
$GPGGA,090639.00,0616.06341973,N,07535.47361190,W,1,05,2.87,160.00,M,-21.3213,M,,*6E
$GPGGA,090640.00,0616.06284463,N,07535.47310377,W,1,05,2.87,160.00,M,-21.3213,M,,*69
$GPGGA,090641.00,0616.06235078,N,07535.47266765,W,1,05,2.87,160.00,M,-21.3213,M,,*6B
$GPGGA,090642.00,0616.06177525,N,07535.47215985,W,1,05,2.87,160.00,M,-21.3213,M,,*64
$GPGGA,090643.00,0616.06119931,N,07535.47165246,W,1,05,2.87,160.00,M,-21.3213,M,,*64
$GPGGA,090644.00,0616.06062286,N,07535.47114563,W,1,05,2.87,160.00,M,-21.3213,M,,*6F
$GPGGA,090645.00,0616.06004575,N,07535.47063956,W,1,05,2.87,160.00,M,-21.3213,M,,*6E
$GPGGA,090646.00,0616.05946784,N,07535.47013442,W,1,05,2.87,160.00,M,-21.3213,M,,*62
$GPGGA,090647.00,0616.05888912,N,07535.46963025,W,1,05,2.87,160.00,M,-21.3213,M,,*6B
$GPGGA,090648.00,0616.05830968,N,07535.46912694,W,1,05,2.87,160.00,M,-21.3213,M,,*60
$GPGGA,090649.00,0616.05781174,N,07535.46869548,W,1,05,2.87,160.00,M,-21.3213,M,,*6E
$GPGGA,090650.00,0616.05723115,N,07535.46819354,W,1,05,2.87,160.00,M,-21.3213,M,,*65
$GPGGA,090651.00,0616.05665004,N,07535.46769223,W,1,05,2.87,160.00,M,-21.3213,M,,*6F
$GPGGA,090652.00,0616.05606845,N,07535.46719151,W,1,05,2.87,160.00,M,-21.3213,M,,*65
$GPGGA,090653.00,0616.05548641,N,07535.46669134,W,1,05,2.87,160.00,M,-21.3213,M,,*62
$GPGGA,090654.00,0616.05490396,N,07535.46619168,W,1,05,2.87,160.00,M,-21.3213,M,,*60
$GPGGA,090655.00,0616.05432112,N,07535.46569253,W,1,05,2.87,160.00,M,-21.3213,M,,*68
$GPGGA,090656.00,0616.05373789,N,07535.46519388,W,1,05,2.87,160.00,M,-21.3213,M,,*6D
$GPGGA,090657.00,0616.05323693,N,07535.46476621,W,1,05,2.87,160.00,M,-21.3213,M,,*6D
$GPGGA,090658.00,0616.05265300,N,07535.46426849,W,1,05,2.87,160.00,M,-21.3213,M,,*6B
$GPGGA,090659.00,0616.05206869,N,07535.46377130,W,1,05,2.87,160.00,M,-21.3213,M,,*6F
$GPGGA,090700.00,0616.05148397,N,07535.46327468,W,1,05,2.87,160.00,M,-21.3213,M,,*6C
$GPGGA,090701.00,0616.05089883,N,07535.46277866,W,1,05,2.87,160.00,M,-21.3213,M,,*69
$GPGGA,090702.00,0616.05031321,N,07535.46228330,W,1,05,2.87,160.00,M,-21.3213,M,,*68
$GPGGA,090703.00,0616.04972709,N,07535.46178867,W,1,05,2.87,160.00,M,-21.3213,M,,*67
$GPGGA,090704.00,0616.04914041,N,07535.46129485,W,1,05,2.87,160.00,M,-21.3213,M,,*6F
$GPGGA,090705.00,0616.04863631,N,07535.46087169,W,1,05,2.87,160.00,M,-21.3213,M,,*6C
$GPGGA,090706.00,0616.04804840,N,07535.46037967,W,1,05,2.87,160.00,M,-21.3213,M,,*6B
$GPGGA,090707.00,0616.04745970,N,07535.45988880,W,1,05,2.87,160.00,M,-21.3213,M,,*64
$GPGGA,090708.00,0616.04687010,N,07535.45939923,W,1,05,2.87,160.00,M,-21.3213,M,,*69
$GPGGA,090709.00,0616.04627949,N,07535.45891114,W,1,05,2.87,160.00,M,-21.3213,M,,*68
$GPGGA,090710.00,0616.04568770,N,07535.45842475,W,1,05,2.87,160.00,M,-21.3213,M,,*60
$GPGGA,090711.00,0616.04509457,N,07535.45794031,W,1,05,2.87,160.00,M,-21.3213,M,,*60
$GPGGA,090712.00,0616.04449989,N,07535.45745809,W,1,05,2.87,160.00,M,-21.3213,M,,*67
$GPGGA,090713.00,0616.04398809,N,07535.45704623,W,1,05,2.87,160.00,M,-21.3213,M,,*67
$GPGGA,090714.00,0616.04338988,N,07535.45656904,W,1,05,2.87,160.00,M,-21.3213,M,,*6E
$GPGGA,090715.00,0616.04278942,N,07535.45609501,W,1,05,2.87,160.00,M,-21.3213,M,,*6F
$GPGGA,090716.00,0616.04218691,N,07535.45562387,W,1,05,2.87,160.00,M,-21.3213,M,,*6D
$GPGGA,090717.00,0616.04158269,N,07535.45515513,W,1,05,2.87,160.00,M,-21.3213,M,,*63
$GPGGA,090718.00,0616.04097708,N,07535.45468839,W,1,05,2.87,160.00,M,-21.3213,M,,*62
$GPGGA,090719.00,0616.04037037,N,07535.45422327,W,1,05,2.87,160.00,M,-21.3213,M,,*68
$GPGGA,090720.00,0616.03976284,N,07535.45375944,W,1,05,2.87,160.00,M,-21.3213,M,,*69
$GPGGA,090721.00,0616.03915473,N,07535.45329658,W,1,05,2.87,160.00,M,-21.3213,M,,*68
$GPGGA,090722.00,0616.03854750,N,07535.45283532,W,1,05,2.87,160.00,M,-21.3213,M,,*63
$GPGGA,090723.00,0616.03802532,N,07535.45243906,W,1,05,2.87,160.00,M,-21.3213,M,,*60
$GPGGA,090724.00,0616.03741694,N,07535.45197745,W,1,05,2.87,160.00,M,-21.3213,M,,*63
$GPGGA,090725.00,0616.03680893,N,07535.45151576,W,1,05,2.87,160.00,M,-21.3213,M,,*6F
$GPGGA,090726.00,0616.03620152,N,07535.45105373,W,1,05,2.87,160.00,M,-21.3213,M,,*60
$GPGGA,090727.00,0616.03559500,N,07535.45059109,W,1,05,2.87,160.00,M,-21.3213,M,,*68
$GPGGA,090728.00,0616.03498961,N,07535.45012756,W,1,05,2.87,160.00,M,-21.3213,M,,*63
$GPGGA,090729.00,0616.03438568,N,07535.44966282,W,1,05,2.87,160.00,M,-21.3213,M,,*6A
$GPGGA,090730.00,0616.03378351,N,07535.44919656,W,1,05,2.87,160.00,M,-21.3213,M,,*68
$GPGGA,090731.00,0616.03318346,N,07535.44872841,W,1,05,2.87,160.00,M,-21.3213,M,,*6D
$GPGGA,090732.00,0616.03258593,N,07535.44825797,W,1,05,2.87,160.00,M,-21.3213,M,,*63
$GPGGA,090733.00,0616.03199134,N,07535.44778479,W,1,05,2.87,160.00,M,-21.3213,M,,*61
$GPGGA,090734.00,0616.03140017,N,07535.44730837,W,1,05,2.87,160.00,M,-21.3213,M,,*68
$GPGGA,090735.00,0616.03081298,N,07535.44682812,W,1,05,2.87,160.00,M,-21.3213,M,,*6F
$GPGGA,090736.00,0616.03031306,N,07535.44641272,W,1,05,2.87,160.00,M,-21.3213,M,,*62
$GPGGA,090737.00,0616.02973493,N,07535.44592354,W,1,05,2.87,160.00,M,-21.3213,M,,*6E
$GPGGA,090738.00,0616.02916268,N,07535.44542833,W,1,05,2.87,160.00,M,-21.3213,M,,*67
$GPGGA,090739.00,0616.02859715,N,07535.44492607,W,1,05,2.87,160.00,M,-21.3213,M,,*66
$GPGGA,090740.00,0616.02803922,N,07535.44441558,W,1,05,2.87,160.00,M,-21.3213,M,,*6A
$GPGGA,090741.00,0616.02748889,N,07535.44389661,W,1,05,2.87,160.00,M,-21.3213,M,,*61
$GPGGA,090742.00,0616.02694519,N,07535.44337009,W,1,05,2.87,160.00,M,-21.3213,M,,*6B
$GPGGA,090743.00,0616.02640722,N,07535.44283690,W,1,05,2.87,160.00,M,-21.3213,M,,*61
$GPGGA,090744.00,0616.02587424,N,07535.44229779,W,1,05,2.87,160.00,M,-21.3213,M,,*6D
$GPGGA,090745.00,0616.02534563,N,07535.44175345,W,1,05,2.87,160.00,M,-21.3213,M,,*67
$GPGGA,090746.00,0616.02482087,N,07535.44120447,W,1,05,2.87,160.00,M,-21.3213,M,,*62
$GPGGA,090747.00,0616.02429952,N,07535.44065136,W,1,05,2.87,160.00,M,-21.3213,M,,*60
$GPGGA,090748.00,0616.02378122,N,07535.44009455,W,1,05,2.87,160.00,M,-21.3213,M,,*69
$GPGGA,090749.00,0616.02326569,N,07535.43953443,W,1,05,2.87,160.00,M,-21.3213,M,,*6E
$GPGGA,090750.00,0616.02275268,N,07535.43897129,W,1,05,2.87,160.00,M,-21.3213,M,,*67
$GPGGA,090751.00,0616.02224202,N,07535.43840541,W,1,05,2.87,160.00,M,-21.3213,M,,*6E
$GPGGA,090752.00,0616.02173358,N,07535.43783698,W,1,05,2.87,160.00,M,-21.3213,M,,*65
$GPGGA,090753.00,0616.02122728,N,07535.43726617,W,1,05,2.87,160.00,M,-21.3213,M,,*6B
$GPGGA,090754.00,0616.02079449,N,07535.43677454,W,1,05,2.87,160.00,M,-21.3213,M,,*67
$GPGGA,090755.00,0616.02029206,N,07535.43619954,W,1,05,2.87,160.00,M,-21.3213,M,,*6B
$GPGGA,090756.00,0616.01979176,N,07535.43562235,W,1,05,2.87,160.00,M,-21.3213,M,,*60
$GPGGA,090757.00,0616.01929367,N,07535.43504296,W,1,05,2.87,160.00,M,-21.3213,M,,*6F
$GPGGA,090758.00,0616.01879791,N,07535.43446130,W,1,05,2.87,160.00,M,-21.3213,M,,*61
$GPGGA,090759.00,0616.01830465,N,07535.43387728,W,1,05,2.87,160.00,M,-21.3213,M,,*60
$GPGGA,090800.00,0616.01781411,N,07535.43329072,W,1,05,2.87,160.00,M,-21.3213,M,,*69
$GPGGA,090801.00,0616.01732656,N,07535.43270143,W,1,05,2.87,160.00,M,-21.3213,M,,*6F
$GPGGA,090802.00,0616.01684230,N,07535.43210915,W,1,05,2.87,160.00,M,-21.3213,M,,*69
$GPGGA,090803.00,0616.01636124,N,07535.43151394,W,1,05,2.87,160.00,M,-21.3213,M,,*62
$GPGGA,090804.00,0616.01595059,N,07535.43100102,W,1,05,2.87,160.00,M,-21.3213,M,,*6D
$GPGGA,090805.00,0616.01547443,N,07535.43040129,W,1,05,2.87,160.00,M,-21.3213,M,,*60
$GPGGA,090806.00,0616.01500044,N,07535.42979955,W,1,05,2.87,160.00,M,-21.3213,M,,*62
$GPGGA,090807.00,0616.01452834,N,07535.42919606,W,1,05,2.87,160.00,M,-21.3213,M,,*65
$GPGGA,090808.00,0616.01405792,N,07535.42859101,W,1,05,2.87,160.00,M,-21.3213,M,,*6E
$GPGGA,090809.00,0616.01358898,N,07535.42798461,W,1,05,2.87,160.00,M,-21.3213,M,,*64
$GPGGA,090810.00,0616.01312136,N,07535.42737700,W,1,05,2.87,160.00,M,-21.3213,M,,*6E
$GPGGA,090811.00,0616.01265491,N,07535.42676832,W,1,05,2.87,160.00,M,-21.3213,M,,*6C
$GPGGA,090812.00,0616.01225536,N,07535.42624506,W,1,05,2.87,160.00,M,-21.3213,M,,*6A
$GPGGA,090813.00,0616.01179082,N,07535.42563469,W,1,05,2.87,160.00,M,-21.3213,M,,*63
$GPGGA,090814.00,0616.01132721,N,07535.42502354,W,1,05,2.87,160.00,M,-21.3213,M,,*6B
$GPGGA,090815.00,0616.01086447,N,07535.42441167,W,1,05,2.87,160.00,M,-21.3213,M,,*63
$GPGGA,090816.00,0616.01040255,N,07535.42379914,W,1,05,2.87,160.00,M,-21.3213,M,,*6F
$GPGGA,090817.00,0616.00994145,N,07535.42318598,W,1,05,2.87,160.00,M,-21.3213,M,,*62
$GPGGA,090818.00,0616.00948116,N,07535.42257223,W,1,05,2.87,160.00,M,-21.3213,M,,*67
$GPGGA,090819.00,0616.00902170,N,07535.42195790,W,1,05,2.87,160.00,M,-21.3213,M,,*68
$GPGGA,090820.00,0616.00862796,N,07535.42143008,W,1,05,2.87,160.00,M,-21.3213,M,,*66
$GPGGA,090821.00,0616.00817013,N,07535.42081467,W,1,05,2.87,160.00,M,-21.3213,M,,*6D
$GPGGA,090822.00,0616.00771326,N,07535.42019866,W,1,05,2.87,160.00,M,-21.3213,M,,*68
$GPGGA,090823.00,0616.00725744,N,07535.41958201,W,1,05,2.87,160.00,M,-21.3213,M,,*6C
$GPGGA,090824.00,0616.00680276,N,07535.41896470,W,1,05,2.87,160.00,M,-21.3213,M,,*62
$GPGGA,090825.00,0616.00634935,N,07535.41834664,W,1,05,2.87,160.00,M,-21.3213,M,,*6F
$GPGGA,090826.00,0616.00589737,N,07535.41772778,W,1,05,2.87,160.00,M,-21.3213,M,,*64
$GPGGA,090827.00,0616.00544699,N,07535.41710803,W,1,05,2.87,160.00,M,-21.3213,M,,*66
$GPGGA,090828.00,0616.00506186,N,07535.41657528,W,1,05,2.87,160.00,M,-21.3213,M,,*60
$GPGGA,090829.00,0616.00461506,N,07535.41595356,W,1,05,2.87,160.00,M,-21.3213,M,,*6F
$GPGGA,090830.00,0616.00417056,N,07535.41533057,W,1,05,2.87,160.00,M,-21.3213,M,,*68
$GPGGA,090831.00,0616.00372868,N,07535.41470614,W,1,05,2.87,160.00,M,-21.3213,M,,*6F
$GPGGA,090832.00,0616.00328980,N,07535.41408004,W,1,05,2.87,160.00,M,-21.3213,M,,*6C
$GPGGA,090833.00,0616.00285434,N,07535.41345202,W,1,05,2.87,160.00,M,-21.3213,M,,*63
$GPGGA,090834.00,0616.00242279,N,07535.41282180,W,1,05,2.87,160.00,M,-21.3213,M,,*63
$GPGGA,090835.00,0616.00199573,N,07535.41218902,W,1,05,2.87,160.00,M,-21.3213,M,,*6B
$GPGGA,090836.00,0616.00157378,N,07535.41155327,W,1,05,2.87,160.00,M,-21.3213,M,,*60
$GPGGA,090837.00,0616.00115770,N,07535.41091407,W,1,05,2.87,160.00,M,-21.3213,M,,*67
$GPGGA,090838.00,0616.00080595,N,07535.41036249,W,1,05,2.87,160.00,M,-21.3213,M,,*6D
$GPGGA,090839.00,0616.00040188,N,07535.40971602,W,1,05,2.87,160.00,M,-21.3213,M,,*68
$GPGGA,090840.00,0616.00000329,N,07535.40906612,W,1,05,2.87,160.00,M,-21.3213,M,,*6A
$GPGGA,090841.00,0615.99960941,N,07535.40841323,W,1,05,2.87,160.00,M,-21.3213,M,,*66
$GPGGA,090842.00,0615.99921956,N,07535.40775773,W,1,05,2.87,160.00,M,-21.3213,M,,*6F
$GPGGA,090843.00,0615.99883316,N,07535.40709997,W,1,05,2.87,160.00,M,-21.3213,M,,*66
$GPGGA,090844.00,0615.99844969,N,07535.40644026,W,1,05,2.87,160.00,M,-21.3213,M,,*63
$GPGGA,090845.00,0615.99806872,N,07535.40577888,W,1,05,2.87,160.00,M,-21.3213,M,,*60
$GPGGA,090846.00,0615.99768983,N,07535.40511609,W,1,05,2.87,160.00,M,-21.3213,M,,*6C
$GPGGA,090847.00,0615.99731269,N,07535.40445210,W,1,05,2.87,160.00,M,-21.3213,M,,*62
$GPGGA,090848.00,0615.99693697,N,07535.40378713,W,1,05,2.87,160.00,M,-21.3213,M,,*6E
$GPGGA,090849.00,0615.99661546,N,07535.40321584,W,1,05,2.87,160.00,M,-21.3213,M,,*6D
$GPGGA,090850.00,0615.99624163,N,07535.40254951,W,1,05,2.87,160.00,M,-21.3213,M,,*60
$GPGGA,090851.00,0615.99586847,N,07535.40188269,W,1,05,2.87,160.00,M,-21.3213,M,,*67
$GPGGA,090852.00,0615.99549573,N,07535.40121555,W,1,05,2.87,160.00,M,-21.3213,M,,*66
$GPGGA,090853.00,0615.99512320,N,07535.40054821,W,1,05,2.87,160.00,M,-21.3213,M,,*64
$GPGGA,090854.00,0615.99475065,N,07535.39988084,W,1,05,2.87,160.00,M,-21.3213,M,,*60
$GPGGA,090855.00,0615.99437786,N,07535.39921357,W,1,05,2.87,160.00,M,-21.3213,M,,*63
$GPGGA,090856.00,0615.99400460,N,07535.39854655,W,1,05,2.87,160.00,M,-21.3213,M,,*6B
$GPGGA,090857.00,0615.99363064,N,07535.39787993,W,1,05,2.87,160.00,M,-21.3213,M,,*6C
$GPGGA,090858.00,0615.99325573,N,07535.39721386,W,1,05,2.87,160.00,M,-21.3213,M,,*60
$GPGGA,090859.00,0615.99293302,N,07535.39664282,W,1,05,2.87,160.00,M,-21.3213,M,,*68
$GPGGA,090900.00,0615.99255560,N,07535.39597825,W,1,05,2.87,160.00,M,-21.3213,M,,*65
$GPGGA,090901.00,0615.99217639,N,07535.39531474,W,1,05,2.87,160.00,M,-21.3213,M,,*69
$GPGGA,090902.00,0615.99179501,N,07535.39465252,W,1,05,2.87,160.00,M,-21.3213,M,,*6B
$GPGGA,090903.00,0615.99141108,N,07535.39399182,W,1,05,2.87,160.00,M,-21.3213,M,,*66
$GPGGA,090904.00,0615.99102411,N,07535.39333289,W,1,05,2.87,160.00,M,-21.3213,M,,*63
$GPGGA,090905.00,0615.99063361,N,07535.39267604,W,1,05,2.87,160.00,M,-21.3213,M,,*65
$GPGGA,090906.00,0615.99023895,N,07535.39202158,W,1,05,2.87,160.00,M,-21.3213,M,,*6F
$GPGGA,090907.00,0615.98983947,N,07535.39136985,W,1,05,2.87,160.00,M,-21.3213,M,,*6E
$GPGGA,090908.00,0615.98943514,N,07535.39072085,W,1,05,2.87,160.00,M,-21.3213,M,,*6F
$GPGGA,090909.00,0615.98908471,N,07535.39016572,W,1,05,2.87,160.00,M,-21.3213,M,,*6C
$GPGGA,090910.00,0615.98867291,N,07535.38952077,W,1,05,2.87,160.00,M,-21.3213,M,,*6C
$GPGGA,090911.00,0615.98825784,N,07535.38887758,W,1,05,2.87,160.00,M,-21.3213,M,,*69
$GPGGA,090912.00,0615.98783995,N,07535.38823588,W,1,05,2.87,160.00,M,-21.3213,M,,*66
$GPGGA,090913.00,0615.98741963,N,07535.38759546,W,1,05,2.87,160.00,M,-21.3213,M,,*60
$GPGGA,090914.00,0615.98699721,N,07535.38695612,W,1,05,2.87,160.00,M,-21.3213,M,,*68
$GPGGA,090915.00,0615.98657300,N,07535.38631770,W,1,05,2.87,160.00,M,-21.3213,M,,*67
$GPGGA,090916.00,0615.98614726,N,07535.38568005,W,1,05,2.87,160.00,M,-21.3213,M,,*69
$GPGGA,090917.00,0615.98578077,N,07535.38513320,W,1,05,2.87,160.00,M,-21.3213,M,,*6A
$GPGGA,090918.00,0615.98535280,N,07535.38449665,W,1,05,2.87,160.00,M,-21.3213,M,,*6C
$GPGGA,090919.00,0615.98492393,N,07535.38386053,W,1,05,2.87,160.00,M,-21.3213,M,,*65
$GPGGA,090920.00,0615.98449433,N,07535.38322476,W,1,05,2.87,160.00,M,-21.3213,M,,*69
$GPGGA,090921.00,0615.98406416,N,07535.38258924,W,1,05,2.87,160.00,M,-21.3213,M,,*62
$GPGGA,090922.00,0615.98363357,N,07535.38195389,W,1,05,2.87,160.00,M,-21.3213,M,,*68
$GPGGA,090923.00,0615.98320271,N,07535.38131863,W,1,05,2.87,160.00,M,-21.3213,M,,*6A
$GPGGA,090924.00,0615.98277172,N,07535.38068339,W,1,05,2.87,160.00,M,-21.3213,M,,*67
$GPGGA,090925.00,0615.98240170,N,07535.38013798,W,1,05,2.87,160.00,M,-21.3213,M,,*63
$GPGGA,090926.00,0615.98197081,N,07535.37950255,W,1,05,2.87,160.00,M,-21.3213,M,,*63
$GPGGA,090927.00,0615.98154018,N,07535.37886691,W,1,05,2.87,160.00,M,-21.3213,M,,*6B
$GPGGA,090928.00,0615.98110994,N,07535.37823098,W,1,05,2.87,160.00,M,-21.3213,M,,*69
$GPGGA,090929.00,0615.98068025,N,07535.37759465,W,1,05,2.87,160.00,M,-21.3213,M,,*61
$GPGGA,090930.00,0615.98025125,N,07535.37695784,W,1,05,2.87,160.00,M,-21.3213,M,,*6C
$GPGGA,090931.00,0615.97982301,N,07535.37632052,W,1,05,2.87,160.00,M,-21.3213,M,,*63
$GPGGA,090932.00,0615.97945594,N,07535.37577300,W,1,05,2.87,160.00,M,-21.3213,M,,*67
$GPGGA,090933.00,0615.97902904,N,07535.37513482,W,1,05,2.87,160.00,M,-21.3213,M,,*6F
$GPGGA,090934.00,0615.97860286,N,07535.37449618,W,1,05,2.87,160.00,M,-21.3213,M,,*63
$GPGGA,090935.00,0615.97817742,N,07535.37385710,W,1,05,2.87,160.00,M,-21.3213,M,,*61
$GPGGA,090936.00,0615.97775276,N,07535.37321756,W,1,05,2.87,160.00,M,-21.3213,M,,*67
$GPGGA,090937.00,0615.97732892,N,07535.37257756,W,1,05,2.87,160.00,M,-21.3213,M,,*65
$GPGGA,090938.00,0615.97690596,N,07535.37193706,W,1,05,2.87,160.00,M,-21.3213,M,,*64
$GPGGA,090939.00,0615.97648398,N,07535.37129603,W,1,05,2.87,160.00,M,-21.3213,M,,*6D
$GPGGA,090940.00,0615.97612258,N,07535.37074527,W,1,05,2.87,160.00,M,-21.3213,M,,*6D
$GPGGA,090941.00,0615.97570270,N,07535.37010313,W,1,05,2.87,160.00,M,-21.3213,M,,*62
$GPGGA,090942.00,0615.97528413,N,07535.36946029,W,1,05,2.87,160.00,M,-21.3213,M,,*6E
$GPGGA,090943.00,0615.97486706,N,07535.36881667,W,1,05,2.87,160.00,M,-21.3213,M,,*6B
$GPGGA,090944.00,0615.97445168,N,07535.36817216,W,1,05,2.87,160.00,M,-21.3213,M,,*60
$GPGGA,090945.00,0615.97403823,N,07535.36752665,W,1,05,2.87,160.00,M,-21.3213,M,,*6B
$GPGGA,090946.00,0615.97362696,N,07535.36687999,W,1,05,2.87,160.00,M,-21.3213,M,,*6D
$GPGGA,090947.00,0615.97321820,N,07535.36623202,W,1,05,2.87,160.00,M,-21.3213,M,,*6F
$GPGGA,090948.00,0615.97286962,N,07535.36567464,W,1,05,2.87,160.00,M,-21.3213,M,,*6E
$GPGGA,090949.00,0615.97246652,N,07535.36502368,W,1,05,2.87,160.00,M,-21.3213,M,,*67
$GPGGA,090950.00,0615.97206709,N,07535.36437073,W,1,05,2.87,160.00,M,-21.3213,M,,*6A
$GPGGA,090951.00,0615.97167189,N,07535.36371548,W,1,05,2.87,160.00,M,-21.3213,M,,*69
$GPGGA,090952.00,0615.97128151,N,07535.36305757,W,1,05,2.87,160.00,M,-21.3213,M,,*6B
$GPGGA,090953.00,0615.97089662,N,07535.36239656,W,1,05,2.87,160.00,M,-21.3213,M,,*69
$GPGGA,090954.00,0615.97051713,N,07535.36173247,W,1,05,2.87,160.00,M,-21.3213,M,,*65
$GPGGA,090955.00,0615.97014232,N,07535.36106565,W,1,05,2.87,160.00,M,-21.3213,M,,*66
$GPGGA,090956.00,0615.96977152,N,07535.36039646,W,1,05,2.87,160.00,M,-21.3213,M,,*62
$GPGGA,090957.00,0615.96945603,N,07535.35982045,W,1,05,2.87,160.00,M,-21.3213,M,,*6E
$GPGGA,090958.00,0615.96909122,N,07535.35914763,W,1,05,2.87,160.00,M,-21.3213,M,,*61
$GPGGA,090959.00,0615.96872898,N,07535.35847324,W,1,05,2.87,160.00,M,-21.3213,M,,*65
$GPGGA,091000.00,0615.96836892,N,07535.35779750,W,1,05,2.87,160.00,M,-21.3213,M,,*6E
$GPGGA,091001.00,0615.96801070,N,07535.35712061,W,1,05,2.87,160.00,M,-21.3213,M,,*67
$GPGGA,091002.00,0615.96765402,N,07535.35644276,W,1,05,2.87,160.00,M,-21.3213,M,,*6E
$GPGGA,091003.00,0615.96729860,N,07535.35576409,W,1,05,2.87,160.00,M,-21.3213,M,,*63
$GPGGA,091004.00,0615.96694419,N,07535.35508477,W,1,05,2.87,160.00,M,-21.3213,M,,*61
$GPGGA,091005.00,0615.96664062,N,07535.35450124,W,1,05,2.87,160.00,M,-21.3213,M,,*68
$GPGGA,091006.00,0615.96628752,N,07535.35382104,W,1,05,2.87,160.00,M,-21.3213,M,,*6D
$GPGGA,091007.00,0615.96593483,N,07535.35314055,W,1,05,2.87,160.00,M,-21.3213,M,,*6A
$GPGGA,091008.00,0615.96558236,N,07535.35245989,W,1,05,2.87,160.00,M,-21.3213,M,,*67
$GPGGA,091009.00,0615.96522993,N,07535.35177916,W,1,05,2.87,160.00,M,-21.3213,M,,*6B
$GPGGA,091010.00,0615.96487735,N,07535.35109848,W,1,05,2.87,160.00,M,-21.3213,M,,*6C
$GPGGA,091011.00,0615.96452444,N,07535.35041796,W,1,05,2.87,160.00,M,-21.3213,M,,*61
$GPGGA,091012.00,0615.96417100,N,07535.34973770,W,1,05,2.87,160.00,M,-21.3213,M,,*67
$GPGGA,091013.00,0615.96381682,N,07535.34905783,W,1,05,2.87,160.00,M,-21.3213,M,,*6E
$GPGGA,091014.00,0615.96351205,N,07535.34847464,W,1,05,2.87,160.00,M,-21.3213,M,,*62
$GPGGA,091015.00,0615.96315590,N,07535.34779584,W,1,05,2.87,160.00,M,-21.3213,M,,*65
$GPGGA,091016.00,0615.96279834,N,07535.34711782,W,1,05,2.87,160.00,M,-21.3213,M,,*64
$GPGGA,091017.00,0615.96243906,N,07535.34644073,W,1,05,2.87,160.00,M,-21.3213,M,,*64
$GPGGA,091018.00,0615.96207774,N,07535.34576475,W,1,05,2.87,160.00,M,-21.3213,M,,*60
$GPGGA,091019.00,0615.96171402,N,07535.34509008,W,1,05,2.87,160.00,M,-21.3213,M,,*67
$GPGGA,091020.00,0615.96134746,N,07535.34441693,W,1,05,2.87,160.00,M,-21.3213,M,,*66
$GPGGA,091021.00,0615.96097761,N,07535.34374555,W,1,05,2.87,160.00,M,-21.3213,M,,*62
$GPGGA,091022.00,0615.96065742,N,07535.34317067,W,1,05,2.87,160.00,M,-21.3213,M,,*6C
$GPGGA,091023.00,0615.96028158,N,07535.34250243,W,1,05,2.87,160.00,M,-21.3213,M,,*6F
$GPGGA,091024.00,0615.95990307,N,07535.34183559,W,1,05,2.87,160.00,M,-21.3213,M,,*68
$GPGGA,091025.00,0615.95952221,N,07535.34116998,W,1,05,2.87,160.00,M,-21.3213,M,,*6F
$GPGGA,091026.00,0615.95913929,N,07535.34050544,W,1,05,2.87,160.00,M,-21.3213,M,,*64
$GPGGA,091027.00,0615.95875452,N,07535.33984186,W,1,05,2.87,160.00,M,-21.3213,M,,*68
$GPGGA,091028.00,0615.95836813,N,07535.33917914,W,1,05,2.87,160.00,M,-21.3213,M,,*60
$GPGGA,091029.00,0615.95798027,N,07535.33851720,W,1,05,2.87,160.00,M,-21.3213,M,,*6F
$GPGGA,091030.00,0615.95764626,N,07535.33794952,W,1,05,2.87,160.00,M,-21.3213,M,,*6E
$GPGGA,091031.00,0615.95725604,N,07535.33728885,W,1,05,2.87,160.00,M,-21.3213,M,,*66
$GPGGA,091032.00,0615.95686469,N,07535.33662881,W,1,05,2.87,160.00,M,-21.3213,M,,*6F
$GPGGA,091033.00,0615.95647229,N,07535.33596937,W,1,05,2.87,160.00,M,-21.3213,M,,*65
$GPGGA,091034.00,0615.95607888,N,07535.33531052,W,1,05,2.87,160.00,M,-21.3213,M,,*60
$GPGGA,091035.00,0615.95568450,N,07535.33465226,W,1,05,2.87,160.00,M,-21.3213,M,,*63
$GPGGA,091036.00,0615.95528916,N,07535.33399459,W,1,05,2.87,160.00,M,-21.3213,M,,*61
$GPGGA,091037.00,0615.95494900,N,07535.33343051,W,1,05,2.87,160.00,M,-21.3213,M,,*6A
$GPGGA,091038.00,0615.95455183,N,07535.33277404,W,1,05,2.87,160.00,M,-21.3213,M,,*69
$GPGGA,091039.00,0615.95415362,N,07535.33211826,W,1,05,2.87,160.00,M,-21.3213,M,,*6D
$GPGGA,091040.00,0615.95375431,N,07535.33146324,W,1,05,2.87,160.00,M,-21.3213,M,,*6B
$GPGGA,091041.00,0615.95335379,N,07535.33080905,W,1,05,2.87,160.00,M,-21.3213,M,,*67
$GPGGA,091042.00,0615.95295197,N,07535.33015579,W,1,05,2.87,160.00,M,-21.3213,M,,*66
$GPGGA,091043.00,0615.95254869,N,07535.32950356,W,1,05,2.87,160.00,M,-21.3213,M,,*60
$GPGGA,091044.00,0615.95214379,N,07535.32885249,W,1,05,2.87,160.00,M,-21.3213,M,,*6F
$GPGGA,091045.00,0615.95179478,N,07535.32829467,W,1,05,2.87,160.00,M,-21.3213,M,,*6C
$GPGGA,091046.00,0615.95138630,N,07535.32764619,W,1,05,2.87,160.00,M,-21.3213,M,,*69
$GPGGA,091047.00,0615.95097551,N,07535.32699937,W,1,05,2.87,160.00,M,-21.3213,M,,*68
$GPGGA,091048.00,0615.95056207,N,07535.32635444,W,1,05,2.87,160.00,M,-21.3213,M,,*61
$GPGGA,091049.00,0615.95014562,N,07535.32571166,W,1,05,2.87,160.00,M,-21.3213,M,,*64
$GPGGA,091050.00,0615.94972570,N,07535.32507132,W,1,05,2.87,160.00,M,-21.3213,M,,*67
$GPGGA,091051.00,0615.94930179,N,07535.32443378,W,1,05,2.87,160.00,M,-21.3213,M,,*60
$GPGGA,091052.00,0615.94887335,N,07535.32379935,W,1,05,2.87,160.00,M,-21.3213,M,,*69
$GPGGA,091053.00,0615.94844054,N,07535.32316790,W,1,05,2.87,160.00,M,-21.3213,M,,*6B
$GPGGA,091054.00,0615.94806598,N,07535.32262801,W,1,05,2.87,160.00,M,-21.3213,M,,*6A
$GPGGA,091055.00,0615.94762643,N,07535.32200108,W,1,05,2.87,160.00,M,-21.3213,M,,*67
$GPGGA,091056.00,0615.94718387,N,07535.32137615,W,1,05,2.87,160.00,M,-21.3213,M,,*68
$GPGGA,091057.00,0615.94673868,N,07535.32075298,W,1,05,2.87,160.00,M,-21.3213,M,,*69
$GPGGA,091058.00,0615.94629115,N,07535.32013134,W,1,05,2.87,160.00,M,-21.3213,M,,*6F
$GPGGA,091059.00,0615.94584155,N,07535.31951107,W,1,05,2.87,160.00,M,-21.3213,M,,*62
$GPGGA,091100.00,0615.94539012,N,07535.31889203,W,1,05,2.87,160.00,M,-21.3213,M,,*68
$GPGGA,091101.00,0615.94493705,N,07535.31827410,W,1,05,2.87,160.00,M,-21.3213,M,,*69
$GPGGA,091102.00,0615.94454695,N,07535.31774450,W,1,05,2.87,160.00,M,-21.3213,M,,*64
$GPGGA,091103.00,0615.94409121,N,07535.31712839,W,1,05,2.87,160.00,M,-21.3213,M,,*66
$GPGGA,091104.00,0615.94363420,N,07535.31651318,W,1,05,2.87,160.00,M,-21.3213,M,,*60
$GPGGA,091105.00,0615.94317600,N,07535.31589882,W,1,05,2.87,160.00,M,-21.3213,M,,*6C
$GPGGA,091106.00,0615.94271668,N,07535.31528531,W,1,05,2.87,160.00,M,-21.3213,M,,*6E
$GPGGA,091107.00,0615.94225625,N,07535.31467264,W,1,05,2.87,160.00,M,-21.3213,M,,*6A
$GPGGA,091108.00,0615.94179475,N,07535.31406081,W,1,05,2.87,160.00,M,-21.3213,M,,*66
$GPGGA,091109.00,0615.94133215,N,07535.31344988,W,1,05,2.87,160.00,M,-21.3213,M,,*68
$GPGGA,091110.00,0615.94093419,N,07535.31292622,W,1,05,2.87,160.00,M,-21.3213,M,,*64
$GPGGA,091111.00,0615.94046947,N,07535.31231707,W,1,05,2.87,160.00,M,-21.3213,M,,*64
$GPGGA,091112.00,0615.94000351,N,07535.31170901,W,1,05,2.87,160.00,M,-21.3213,M,,*66
$GPGGA,091113.00,0615.93953620,N,07535.31110212,W,1,05,2.87,160.00,M,-21.3213,M,,*63
$GPGGA,091114.00,0615.93906743,N,07535.31049655,W,1,05,2.87,160.00,M,-21.3213,M,,*6A
$GPGGA,091115.00,0615.93859703,N,07535.30989243,W,1,05,2.87,160.00,M,-21.3213,M,,*63
$GPGGA,091116.00,0615.93812481,N,07535.30928997,W,1,05,2.87,160.00,M,-21.3213,M,,*6F
$GPGGA,091117.00,0615.93765054,N,07535.30868936,W,1,05,2.87,160.00,M,-21.3213,M,,*63
$GPGGA,091118.00,0615.93717396,N,07535.30809086,W,1,05,2.87,160.00,M,-21.3213,M,,*61
$GPGGA,091119.00,0615.93676284,N,07535.30757911,W,1,05,2.87,160.00,M,-21.3213,M,,*67
$GPGGA,091120.00,0615.93628105,N,07535.30698532,W,1,05,2.87,160.00,M,-21.3213,M,,*63
$GPGGA,091121.00,0615.93579586,N,07535.30639456,W,1,05,2.87,160.00,M,-21.3213,M,,*62
$GPGGA,091122.00,0615.93530677,N,07535.30580726,W,1,05,2.87,160.00,M,-21.3213,M,,*64
$GPGGA,091123.00,0615.93481360,N,07535.30522352,W,1,05,2.87,160.00,M,-21.3213,M,,*62
$GPGGA,091124.00,0615.93431681,N,07535.30464290,W,1,05,2.87,160.00,M,-21.3213,M,,*68
$GPGGA,091125.00,0615.93381687,N,07535.30406496,W,1,05,2.87,160.00,M,-21.3213,M,,*67
$GPGGA,091126.00,0615.93331416,N,07535.30348936,W,1,05,2.87,160.00,M,-21.3213,M,,*6F
$GPGGA,091127.00,0615.93280904,N,07535.30291578,W,1,05,2.87,160.00,M,-21.3213,M,,*68
$GPGGA,091128.00,0615.93230180,N,07535.30234395,W,1,05,2.87,160.00,M,-21.3213,M,,*62
$GPGGA,091129.00,0615.93186501,N,07535.30185443,W,1,05,2.87,160.00,M,-21.3213,M,,*65
$GPGGA,091130.00,0615.93135451,N,07535.30128527,W,1,05,2.87,160.00,M,-21.3213,M,,*65
$GPGGA,091131.00,0615.93084255,N,07535.30071729,W,1,05,2.87,160.00,M,-21.3213,M,,*6C
$GPGGA,091132.00,0615.93032930,N,07535.30015035,W,1,05,2.87,160.00,M,-21.3213,M,,*62
$GPGGA,091133.00,0615.92981492,N,07535.29958432,W,1,05,2.87,160.00,M,-21.3213,M,,*6D
$GPGGA,091134.00,0615.92929952,N,07535.29901910,W,1,05,2.87,160.00,M,-21.3213,M,,*68
$GPGGA,091135.00,0615.92878321,N,07535.29845459,W,1,05,2.87,160.00,M,-21.3213,M,,*63
$GPGGA,091136.00,0615.92826607,N,07535.29789074,W,1,05,2.87,160.00,M,-21.3213,M,,*6E
$GPGGA,091137.00,0615.92774818,N,07535.29732746,W,1,05,2.87,160.00,M,-21.3213,M,,*61
$GPGGA,091138.00,0615.92730313,N,07535.29684445,W,1,05,2.87,160.00,M,-21.3213,M,,*62
$GPGGA,091139.00,0615.92678397,N,07535.29628214,W,1,05,2.87,160.00,M,-21.3213,M,,*66
$GPGGA,091140.00,0615.92626417,N,07535.29572031,W,1,05,2.87,160.00,M,-21.3213,M,,*65
$GPGGA,091141.00,0615.92574376,N,07535.29515893,W,1,05,2.87,160.00,M,-21.3213,M,,*61
$GPGGA,091142.00,0615.92522273,N,07535.29459800,W,1,05,2.87,160.00,M,-21.3213,M,,*66
$GPGGA,091143.00,0615.92470108,N,07535.29403751,W,1,05,2.87,160.00,M,-21.3213,M,,*6A
$GPGGA,091144.00,0615.92417880,N,07535.29347748,W,1,05,2.87,160.00,M,-21.3213,M,,*6A
